[
  {
    "id": "11813",
    "name": "Ruturaj Gaikwad",
    "profile": "https://www.cricbuzz.com/profiles/11813/ruturaj-gaikwad",
    "dob": "1997-01-31",
    "birthPlace": "Pune",
    "latitude": "18.5213738",
    "longitude": "73.8545071",
    "timezone": "Asia/Kolkata"
  },
  {
    "id": "20538",
    "name": "Dewald Brevis",
    "profile": "https://www.cricbuzz.com/profiles/20538/dewald-brevis",
    "dob": "2003-04-29",
    "birthPlace": "",
    "latitude": "",
    "longitude": "",
    "timezone": ""
  },
  {
    "id": "1431163",
    "name": "Ayush Mhatre",
    "profile": "https://www.cricbuzz.com/profiles/1431163/ayush-mhatre",
    "dob": "2007-07-16",
    "birthPlace": "",
    "latitude": "",
    "longitude": "",
    "timezone": ""
  },
  {
    "id": "9456",
    "name": "Matthew Short",
    "profile": "https://www.cricbuzz.com/profiles/9456/matthew-short",
    "dob": "1995-11-08",
    "birthPlace": "Australia",
    "latitude": "-24.7761086",
    "longitude": "134.755",
    "timezone": "Australia/Darwin"
  },
  {
    "id": "9429",
    "name": "Sarfaraz Khan",
    "profile": "https://www.cricbuzz.com/profiles/9429/sarfaraz-khan",
    "dob": "1997-10-27",
    "birthPlace": "Mumbai",
    "latitude": "19.054999",
    "longitude": "72.8692035",
    "timezone": "Asia/Kolkata"
  },
  {
    "id": "11195",
    "name": "Shivam Dube",
    "profile": "https://www.cricbuzz.com/profiles/11195/shivam-dube",
    "dob": "1993-06-26",
    "birthPlace": "Mumbai",
    "latitude": "19.054999",
    "longitude": "72.8692035",
    "timezone": "Asia/Kolkata"
  },
  {
    "id": "32835",
    "name": "Ramakrishna Ghosh",
    "profile": "https://www.cricbuzz.com/profiles/32835/ramakrishna-ghosh",
    "dob": "1997-08-28",
    "birthPlace": "",
    "latitude": "",
    "longitude": "",
    "timezone": ""
  },
  {
    "id": "8512",
    "name": "Jamie Overton",
    "profile": "https://www.cricbuzz.com/profiles/8512/jamie-overton",
    "dob": "1994-04-10",
    "birthPlace": "Barnstaple",
    "latitude": "51.0804057",
    "longitude": "-4.0600467",
    "timezone": "Europe/London"
  },
  {
    "id": "14598",
    "name": "Anshul Kamboj",
    "profile": "https://www.cricbuzz.com/profiles/14598/anshul-kamboj",
    "dob": "1994-12-06",
    "birthPlace": "",
    "latitude": "",
    "longitude": "",
    "timezone": ""
  },
  {
    "id": "24391",
    "name": "Zakary Foulkes",
    "profile": "https://www.cricbuzz.com/profiles/24391/zakary-foulkes",
    "dob": "2002-01-01",
    "birthPlace": "",
    "latitude": "",
    "longitude": "",
    "timezone": ""
  },
  {
    "id": "265",
    "name": "MS Dhoni",
    "profile": "https://www.cricbuzz.com/profiles/265/ms-dhoni",
    "dob": "",
    "birthPlace": "",
    "latitude": "",
    "longitude": "",
    "timezone": ""
  },
  {
    "id": "13476",
    "name": "Urvil Patel",
    "profile": "https://www.cricbuzz.com/profiles/13476/urvil-patel",
    "dob": "1998-10-17",
    "birthPlace": "",
    "latitude": "",
    "longitude": "",
    "timezone": ""
  },
  {
    "id": "8271",
    "name": "Sanju Samson",
    "profile": "https://www.cricbuzz.com/profiles/8271/sanju-samson",
    "dob": "1994-11-11",
    "birthPlace": "Thiruvananthapuram",
    "latitude": "8.4882267",
    "longitude": "76.947551",
    "timezone": "Asia/Kolkata"
  },
  {
    "id": "49557",
    "name": "Kartik Sharma",
    "profile": "https://www.cricbuzz.com/profiles/49557/kartik-sharma",
    "dob": "1988-05-01",
    "birthPlace": "Ayodhya",
    "latitude": "26.7990707",
    "longitude": "82.2052321",
    "timezone": "Asia/Kolkata"
  },
  {
    "id": "9746",
    "name": "Shreyas Gopal",
    "profile": "https://www.cricbuzz.com/profiles/9746/shreyas-gopal",
    "dob": "1993-09-04",
    "birthPlace": "Bengaluru",
    "latitude": "12.9767936",
    "longitude": "77.590082",
    "timezone": "Asia/Kolkata"
  },
  {
    "id": "10952",
    "name": "Khaleel Ahmed",
    "profile": "https://www.cricbuzz.com/profiles/10952/khaleel-ahmed",
    "dob": "1997-12-05",
    "birthPlace": "Tonk",
    "latitude": "26.122266",
    "longitude": "75.8238631",
    "timezone": "Asia/Kolkata"
  },
  {
    "id": "15480",
    "name": "Nathan Ellis",
    "profile": "https://www.cricbuzz.com/profiles/15480/nathan-ellis",
    "dob": "1994-09-22",
    "birthPlace": "",
    "latitude": "",
    "longitude": "",
    "timezone": ""
  },
  {
    "id": "19807",
    "name": "Gurjapneet Singh",
    "profile": "https://www.cricbuzz.com/profiles/19807/gurjapneet-singh",
    "dob": "1998-11-08",
    "birthPlace": "",
    "latitude": "",
    "longitude": "",
    "timezone": ""
  },
  {
    "id": "13184",
    "name": "Mukesh Choudhary",
    "profile": "https://www.cricbuzz.com/profiles/13184/mukesh-choudhary",
    "dob": "1986-07-06",
    "birthPlace": "",
    "latitude": "",
    "longitude": "",
    "timezone": ""
  },
  {
    "id": "15452",
    "name": "Noor Ahmad",
    "profile": "https://www.cricbuzz.com/profiles/15452/noor-ahmad",
    "dob": "2005-01-03",
    "birthPlace": "",
    "latitude": "",
    "longitude": "",
    "timezone": ""
  },
  {
    "id": "51417",
    "name": "Prashant Veer",
    "profile": "https://www.cricbuzz.com/profiles/51417/prashant-veer",
    "dob": "",
    "birthPlace": "",
    "latitude": "",
    "longitude": "",
    "timezone": ""
  },
  {
    "id": "8435",
    "name": "Akeal Hosein",
    "profile": "https://www.cricbuzz.com/profiles/8435/akeal-hosein",
    "dob": "1993-04-25",
    "birthPlace": "Port of Spain",
    "latitude": "10.6572678",
    "longitude": "-61.5180173",
    "timezone": "America/Puerto_Rico"
  },
  {
    "id": "9067",
    "name": "Matt Henry",
    "profile": "https://www.cricbuzz.com/profiles/9067/matt-henry",
    "dob": "1991-12-14",
    "birthPlace": "Christchurch",
    "latitude": "-43.530955",
    "longitude": "172.6364343",
    "timezone": "Pacific/Auckland"
  },
  {
    "id": "12087",
    "name": "Rahul Chahar",
    "profile": "https://www.cricbuzz.com/profiles/12087/rahul-chahar",
    "dob": "1999-08-04",
    "birthPlace": "Bharatpur",
    "latitude": "27.0246959",
    "longitude": "77.2920116",
    "timezone": "Asia/Kolkata"
  },
  {
    "id": "8257",
    "name": "Karun Nair",
    "profile": "https://www.cricbuzz.com/profiles/8257/karun-nair",
    "dob": "1991-12-06",
    "birthPlace": "Jodhpur",
    "latitude": "26.2967719",
    "longitude": "73.0351433",
    "timezone": "Asia/Kolkata"
  },
  {
    "id": "9204",
    "name": "Nitish Rana",
    "profile": "https://www.cricbuzz.com/profiles/9204/nitish-rana",
    "dob": "1993-12-27",
    "birthPlace": "Delhi",
    "latitude": "28.6138954",
    "longitude": "77.2090057",
    "timezone": "Asia/Kolkata"
  },
  {
    "id": "14700",
    "name": "Sameer Rizvi",
    "profile": "https://www.cricbuzz.com/profiles/14700/sameer-rizvi",
    "dob": "2003-12-06",
    "birthPlace": "Meerut",
    "latitude": "29.0018557",
    "longitude": "77.7679671",
    "timezone": "Asia/Kolkata"
  },
  {
    "id": "6349",
    "name": "David Miller",
    "profile": "https://www.cricbuzz.com/profiles/6349/david-miller",
    "dob": "1989-06-10",
    "birthPlace": "Pietermaritzburg",
    "latitude": "-29.6",
    "longitude": "30.3788889",
    "timezone": "Africa/Johannesburg"
  },
  {
    "id": "8502",
    "name": "Ben Duckett",
    "profile": "https://www.cricbuzz.com/profiles/8502/ben-duckett",
    "dob": "1994-10-17",
    "birthPlace": "Farnborough",
    "latitude": "51.2918693",
    "longitude": "-0.7539836",
    "timezone": "Europe/London"
  },
  {
    "id": "13682",
    "name": "Pathum Nissanka",
    "profile": "https://www.cricbuzz.com/profiles/13682/pathum-nissanka",
    "dob": "1998-05-18",
    "birthPlace": "Galle",
    "latitude": "6.0328139",
    "longitude": "80.214955",
    "timezone": "Asia/Colombo"
  },
  {
    "id": "1430465",
    "name": "Sahil Parakh",
    "profile": "https://www.cricbuzz.com/profiles/1430465/sahil-parakh",
    "dob": "",
    "birthPlace": "",
    "latitude": "",
    "longitude": "",
    "timezone": ""
  },
  {
    "id": "13497",
    "name": "Ashutosh Sharma",
    "profile": "https://www.cricbuzz.com/profiles/13497/ashutosh-sharma",
    "dob": "1998-09-15",
    "birthPlace": "",
    "latitude": "",
    "longitude": "",
    "timezone": ""
  },
  {
    "id": "22386",
    "name": "Tripurana Vijay",
    "profile": "https://www.cricbuzz.com/profiles/22386/tripurana-vijay",
    "dob": "",
    "birthPlace": "",
    "latitude": "",
    "longitude": "",
    "timezone": ""
  },
  {
    "id": "8808",
    "name": "Axar Patel",
    "profile": "https://www.cricbuzz.com/profiles/8808/axar-patel",
    "dob": "1994-01-20",
    "birthPlace": "Nadiad",
    "latitude": "22.6895535",
    "longitude": "72.8713603",
    "timezone": "Asia/Kolkata"
  },
  {
    "id": "11777",
    "name": "Ajay Jadav Mandal",
    "profile": "https://www.cricbuzz.com/profiles/11777/ajay-jadav-mandal",
    "dob": "1996-02-25",
    "birthPlace": "Durg",
    "latitude": "21.1982964",
    "longitude": "81.4007922",
    "timezone": "Asia/Kolkata"
  },
  {
    "id": "1447321",
    "name": "Madhav Tiwari",
    "profile": "https://www.cricbuzz.com/profiles/1447321/madhav-tiwari",
    "dob": "",
    "birthPlace": "",
    "latitude": "",
    "longitude": "",
    "timezone": ""
  },
  {
    "id": "14179",
    "name": "Auqib Nabi Dar",
    "profile": "https://www.cricbuzz.com/profiles/14179/auqib-nabi-dar",
    "dob": "1996-11-04",
    "birthPlace": "",
    "latitude": "",
    "longitude": "",
    "timezone": ""
  },
  {
    "id": "24326",
    "name": "Abishek Porel",
    "profile": "https://www.cricbuzz.com/profiles/24326/abishek-porel",
    "dob": "2002-10-17",
    "birthPlace": "",
    "latitude": "",
    "longitude": "",
    "timezone": ""
  },
  {
    "id": "8733",
    "name": "KL Rahul",
    "profile": "https://www.cricbuzz.com/profiles/8733/kl-rahul",
    "dob": "1992-04-18",
    "birthPlace": "Bengaluru",
    "latitude": "12.9767936",
    "longitude": "77.590082",
    "timezone": "Asia/Kolkata"
  },
  {
    "id": "19243",
    "name": "Tristan Stubbs",
    "profile": "https://www.cricbuzz.com/profiles/19243/tristan-stubbs",
    "dob": "2000-08-14",
    "birthPlace": "Knysna",
    "latitude": "-34.035734",
    "longitude": "23.048485",
    "timezone": "Africa/Johannesburg"
  },
  {
    "id": "8393",
    "name": "Dushmantha Chameera",
    "profile": "https://www.cricbuzz.com/profiles/8393/dushmantha-chameera",
    "dob": "1992-01-11",
    "birthPlace": "Ragama",
    "latitude": "40.9970072",
    "longitude": "-5.1274597",
    "timezone": "Europe/Madrid"
  },
  {
    "id": "8292",
    "name": "Kuldeep Yadav",
    "profile": "https://www.cricbuzz.com/profiles/8292/kuldeep-yadav",
    "dob": "1994-12-14",
    "birthPlace": "Kanpur",
    "latitude": "26.4609135",
    "longitude": "80.3217588",
    "timezone": "Asia/Kolkata"
  },
  {
    "id": "10754",
    "name": "Mukesh Kumar",
    "profile": "https://www.cricbuzz.com/profiles/10754/mukesh-kumar",
    "dob": "1993-10-12",
    "birthPlace": "Kolkata",
    "latitude": "22.5726459",
    "longitude": "88.3638953",
    "timezone": "Asia/Kolkata"
  },
  {
    "id": "10225",
    "name": "T Natarajan",
    "profile": "https://www.cricbuzz.com/profiles/10225/t-natarajan",
    "dob": "1991-05-27",
    "birthPlace": "Salem",
    "latitude": "44.9391565",
    "longitude": "-123.033121",
    "timezone": "America/Los_Angeles"
  },
  {
    "id": "1431811",
    "name": "Vipraj Nigam",
    "profile": "https://www.cricbuzz.com/profiles/1431811/vipraj-nigam",
    "dob": "2004-07-28",
    "birthPlace": "",
    "latitude": "",
    "longitude": "",
    "timezone": ""
  },
  {
    "id": "7710",
    "name": "Mitchell Starc",
    "profile": "https://www.cricbuzz.com/profiles/7710/mitchell-starc",
    "dob": "1990-01-30",
    "birthPlace": "Baulkham Hills",
    "latitude": "-33.7611198",
    "longitude": "150.9914041",
    "timezone": "Australia/Sydney"
  },
  {
    "id": "9603",
    "name": "Lungi Ngidi",
    "profile": "https://www.cricbuzz.com/profiles/9603/lungi-ngidi",
    "dob": "1996-03-29",
    "birthPlace": "Durban",
    "latitude": "-29.861825",
    "longitude": "31.009909",
    "timezone": "Africa/Johannesburg"
  },
  {
    "id": "9441",
    "name": "Kyle Jamieson",
    "profile": "https://www.cricbuzz.com/profiles/9441/kyle-jamieson",
    "dob": "1994-12-30",
    "birthPlace": "Auckland",
    "latitude": "-36.852095",
    "longitude": "174.7631803",
    "timezone": "Pacific/Auckland"
  },
  {
    "id": "11808",
    "name": "Shubman Gill",
    "profile": "https://www.cricbuzz.com/profiles/11808/shubman-gill",
    "dob": "1999-09-08",
    "birthPlace": "Fazilka",
    "latitude": "30.3198406",
    "longitude": "74.1217943",
    "timezone": "Asia/Kolkata"
  },
  {
    "id": "10226",
    "name": "Shahrukh Khan",
    "profile": "https://www.cricbuzz.com/profiles/10226/shahrukh-khan",
    "dob": "1995-05-27",
    "birthPlace": "Chennai",
    "latitude": "13.0836939",
    "longitude": "80.270186",
    "timezone": "Asia/Kolkata"
  },
  {
    "id": "10693",
    "name": "Glenn Phillips",
    "profile": "https://www.cricbuzz.com/profiles/10693/glenn-phillips",
    "dob": "1996-12-06",
    "birthPlace": "East London",
    "latitude": "-33.0191604",
    "longitude": "27.8998573",
    "timezone": "Africa/Johannesburg"
  },
  {
    "id": "22576",
    "name": "Nishant Sindhu",
    "profile": "https://www.cricbuzz.com/profiles/22576/nishant-sindhu",
    "dob": "2004-04-09",
    "birthPlace": "Rohtak district",
    "latitude": "28.8900602",
    "longitude": "76.5873106",
    "timezone": "Asia/Kolkata"
  },
  {
    "id": "9693",
    "name": "Rahul Tewatia",
    "profile": "https://www.cricbuzz.com/profiles/9693/rahul-tewatia",
    "dob": "1993-05-20",
    "birthPlace": "Faridabad",
    "latitude": "28.4031478",
    "longitude": "77.3105561",
    "timezone": "Asia/Kolkata"
  },
  {
    "id": "10738",
    "name": "Rashid Khan",
    "profile": "https://www.cricbuzz.com/profiles/10738/rashid-khan",
    "dob": "1998-09-20",
    "birthPlace": "Nangarhar Province",
    "latitude": "34.220389",
    "longitude": "70.3800314",
    "timezone": "Asia/Kabul"
  },
  {
    "id": "10945",
    "name": "Washington Sundar",
    "profile": "https://www.cricbuzz.com/profiles/10945/washington-sundar",
    "dob": "1999-10-05",
    "birthPlace": "Chennai",
    "latitude": "13.0836939",
    "longitude": "80.270186",
    "timezone": "Asia/Kolkata"
  },
  {
    "id": "18637",
    "name": "Arshad Khan",
    "profile": "https://www.cricbuzz.com/profiles/18637/arshad-khan",
    "dob": "1997-12-20",
    "birthPlace": "",
    "latitude": "",
    "longitude": "",
    "timezone": ""
  },
  {
    "id": "11595",
    "name": "Ravisrinivasan Sai Kishore",
    "profile": "https://www.cricbuzz.com/profiles/11595/ravisrinivasan-sai-kishore",
    "dob": "1996-11-06",
    "birthPlace": "Chennai",
    "latitude": "13.0836939",
    "longitude": "80.270186",
    "timezone": "Asia/Kolkata"
  },
  {
    "id": "8182",
    "name": "Jayant Yadav",
    "profile": "https://www.cricbuzz.com/profiles/8182/jayant-yadav",
    "dob": "1990-01-22",
    "birthPlace": "Delhi",
    "latitude": "28.6138954",
    "longitude": "77.2090057",
    "timezone": "Asia/Kolkata"
  },
  {
    "id": "8313",
    "name": "Jason Holder",
    "profile": "https://www.cricbuzz.com/profiles/8313/jason-holder",
    "dob": "1991-11-05",
    "birthPlace": "Barbados",
    "latitude": "13.1500331",
    "longitude": "-59.5250305",
    "timezone": "America/Barbados"
  },
  {
    "id": "13135",
    "name": "Anuj Rawat",
    "profile": "https://www.cricbuzz.com/profiles/13135/anuj-rawat",
    "dob": "1999-10-17",
    "birthPlace": "Ramnagar",
    "latitude": "29.394835",
    "longitude": "79.126934",
    "timezone": "Asia/Kolkata"
  },
  {
    "id": "2258",
    "name": "Jos Buttler",
    "profile": "https://www.cricbuzz.com/profiles/2258/jos-buttler",
    "dob": "1990-09-08",
    "birthPlace": "Taunton",
    "latitude": "51.0147895",
    "longitude": "-3.1029086",
    "timezone": "Europe/London"
  },
  {
    "id": "15779",
    "name": "Kumar Kushagra",
    "profile": "https://www.cricbuzz.com/profiles/15779/kumar-kushagra",
    "dob": "2004-10-23",
    "birthPlace": "Bokaro",
    "latitude": "23.699128",
    "longitude": "85.9910689",
    "timezone": "Asia/Kolkata"
  },
  {
    "id": "9494",
    "name": "Kusal Mendis",
    "profile": "https://www.cricbuzz.com/profiles/9494/kusal-mendis",
    "dob": "1995-02-02",
    "birthPlace": "Moratuwa",
    "latitude": "6.7746821",
    "longitude": "79.8826095",
    "timezone": "Asia/Colombo"
  },
  {
    "id": "12254",
    "name": "Tom Banton",
    "profile": "https://www.cricbuzz.com/profiles/12254/tom-banton",
    "dob": "1998-11-11",
    "birthPlace": "Chiltern",
    "latitude": "51.6789304",
    "longitude": "-0.6295206",
    "timezone": "Europe/London"
  },
  {
    "id": "14596",
    "name": "Manav Suthar",
    "profile": "https://www.cricbuzz.com/profiles/14596/manav-suthar",
    "dob": "2002-08-03",
    "birthPlace": "Sri Ganganagar district",
    "latitude": "29.5480733",
    "longitude": "73.8338949",
    "timezone": "Asia/Kolkata"
  },
  {
    "id": "22141",
    "name": "Gurnoor Brar",
    "profile": "https://www.cricbuzz.com/profiles/22141/gurnoor-brar",
    "dob": "2000-05-25",
    "birthPlace": "Sri Muktsar Sahib district",
    "latitude": "30.2867162",
    "longitude": "74.5262234",
    "timezone": "Asia/Kolkata"
  },
  {
    "id": "10808",
    "name": "Mohammed Siraj",
    "profile": "https://www.cricbuzz.com/profiles/10808/mohammed-siraj",
    "dob": "1994-03-13",
    "birthPlace": "Hyderabad",
    "latitude": "17.360589",
    "longitude": "78.4740613",
    "timezone": "Asia/Kolkata"
  },
  {
    "id": "10551",
    "name": "Prasidh Krishna",
    "profile": "https://www.cricbuzz.com/profiles/10551/prasidh-krishna",
    "dob": "1996-02-19",
    "birthPlace": "Bengaluru",
    "latitude": "12.9767936",
    "longitude": "77.590082",
    "timezone": "Asia/Kolkata"
  },
  {
    "id": "9585",
    "name": "Kagiso Rabada",
    "profile": "https://www.cricbuzz.com/profiles/9585/kagiso-rabada",
    "dob": "1995-05-25",
    "birthPlace": "Johannesburg",
    "latitude": "-26.205",
    "longitude": "28.049722",
    "timezone": "Africa/Johannesburg"
  },
  {
    "id": "702",
    "name": "Ishant Sharma",
    "profile": "https://www.cricbuzz.com/profiles/702/ishant-sharma",
    "dob": "1988-09-02",
    "birthPlace": "Delhi",
    "latitude": "28.6138954",
    "longitude": "77.2090057",
    "timezone": "Asia/Kolkata"
  },
  {
    "id": "24261",
    "name": "Ashok Sharma",
    "profile": "https://www.cricbuzz.com/profiles/24261/ashok-sharma",
    "dob": "",
    "birthPlace": "",
    "latitude": "",
    "longitude": "",
    "timezone": ""
  },
  {
    "id": "13113",
    "name": "Prithvi Raj Yarra",
    "profile": "https://www.cricbuzz.com/profiles/13113/prithvi-raj-yarra",
    "dob": "1998-02-20",
    "birthPlace": "Duggirala",
    "latitude": "16.328919",
    "longitude": "80.6238497",
    "timezone": "Asia/Kolkata"
  },
  {
    "id": "9821",
    "name": "Luke Wood",
    "profile": "https://www.cricbuzz.com/profiles/9821/luke-wood",
    "dob": "1995-08-02",
    "birthPlace": "Sheffield",
    "latitude": "53.3806626",
    "longitude": "-1.4702278",
    "timezone": "Europe/London"
  },
  {
    "id": "10636",
    "name": "Rajat Patidar",
    "profile": "https://www.cricbuzz.com/profiles/10636/rajat-patidar",
    "dob": "1993-06-01",
    "birthPlace": "Indore",
    "latitude": "22.7203616",
    "longitude": "75.8681996",
    "timezone": "Asia/Kolkata"
  },
  {
    "id": "13169",
    "name": "Tim David",
    "profile": "https://www.cricbuzz.com/profiles/13169/tim-david",
    "dob": "1996-03-16",
    "birthPlace": "Singapore",
    "latitude": "1.357107",
    "longitude": "103.8194992",
    "timezone": "Asia/Singapore"
  },
  {
    "id": "1413",
    "name": "Virat Kohli",
    "profile": "https://www.cricbuzz.com/profiles/1413/virat-kohli",
    "dob": "1988-11-05",
    "birthPlace": "Delhi",
    "latitude": "28.6138954",
    "longitude": "77.2090057",
    "timezone": "Asia/Kolkata"
  },
  {
    "id": "13088",
    "name": "Devdutt Padikkal",
    "profile": "https://www.cricbuzz.com/profiles/13088/devdutt-padikkal",
    "dob": "2000-07-07",
    "birthPlace": "Edapal",
    "latitude": "9.892376",
    "longitude": "76.5322963",
    "timezone": "Asia/Kolkata"
  },
  {
    "id": "1430529",
    "name": "Vihaan Malhotra",
    "profile": "https://www.cricbuzz.com/profiles/1430529/vihaan-malhotra",
    "dob": "",
    "birthPlace": "",
    "latitude": "",
    "longitude": "",
    "timezone": ""
  },
  {
    "id": "1457033",
    "name": "Kanishk Chouhan",
    "profile": "https://www.cricbuzz.com/profiles/1457033/kanishk-chouhan",
    "dob": "",
    "birthPlace": "",
    "latitude": "",
    "longitude": "",
    "timezone": ""
  },
  {
    "id": "19636",
    "name": "Jacob Bethell",
    "profile": "https://www.cricbuzz.com/profiles/19636/jacob-bethell",
    "dob": "2003-10-23",
    "birthPlace": "Barbados",
    "latitude": "13.1500331",
    "longitude": "-59.5250305",
    "timezone": "America/Barbados"
  },
  {
    "id": "11311",
    "name": "Krunal Pandya",
    "profile": "https://www.cricbuzz.com/profiles/11311/krunal-pandya",
    "dob": "1991-03-24",
    "birthPlace": "Ahmedabad",
    "latitude": "23.0215374",
    "longitude": "72.5800568",
    "timezone": "Asia/Kolkata"
  },
  {
    "id": "10917",
    "name": "Venkatesh Iyer",
    "profile": "https://www.cricbuzz.com/profiles/10917/venkatesh-iyer",
    "dob": "1990-11-25",
    "birthPlace": "Indore",
    "latitude": "22.7203616",
    "longitude": "75.8681996",
    "timezone": "Asia/Kolkata"
  },
  {
    "id": "13646",
    "name": "Romario Shepherd",
    "profile": "https://www.cricbuzz.com/profiles/13646/romario-shepherd",
    "dob": "1994-11-26",
    "birthPlace": "Georgetown",
    "latitude": "6.8137426",
    "longitude": "-58.1624465",
    "timezone": "America/Guyana"
  },
  {
    "id": "10238",
    "name": "Swapnil Singh",
    "profile": "https://www.cricbuzz.com/profiles/10238/swapnil-singh",
    "dob": "1991-01-22",
    "birthPlace": "Raebareli",
    "latitude": "26.2086769",
    "longitude": "81.2186298",
    "timezone": "Asia/Kolkata"
  },
  {
    "id": "1455995",
    "name": "Mangesh Yadav",
    "profile": "https://www.cricbuzz.com/profiles/1455995/mangesh-yadav",
    "dob": "1981-07-07",
    "birthPlace": "Ranchi",
    "latitude": "23.3700501",
    "longitude": "85.3250387",
    "timezone": "Asia/Kolkata"
  },
  {
    "id": "10479",
    "name": "Philip Salt",
    "profile": "https://www.cricbuzz.com/profiles/10479/philip-salt",
    "dob": "1996-08-28",
    "birthPlace": "Bodelwyddan",
    "latitude": "53.2705527",
    "longitude": "-3.5129657",
    "timezone": "Europe/London"
  },
  {
    "id": "10214",
    "name": "Jitesh Sharma",
    "profile": "https://www.cricbuzz.com/profiles/10214/jitesh-sharma",
    "dob": "1993-10-22",
    "birthPlace": "Amravati",
    "latitude": "21.1545412",
    "longitude": "77.6442962",
    "timezone": "Asia/Kolkata"
  },
  {
    "id": "14813",
    "name": "Jordan Cox",
    "profile": "https://www.cricbuzz.com/profiles/14813/jordan-cox",
    "dob": "2000-10-21",
    "birthPlace": "Margate",
    "latitude": "51.3878174",
    "longitude": "1.3819699",
    "timezone": "Europe/London"
  },
  {
    "id": "1447073",
    "name": "Abhinandan Singh",
    "profile": "https://www.cricbuzz.com/profiles/1447073/abhinandan-singh",
    "dob": "",
    "birthPlace": "",
    "latitude": "",
    "longitude": "",
    "timezone": ""
  },
  {
    "id": "6258",
    "name": "Josh Hazlewood",
    "profile": "https://www.cricbuzz.com/profiles/6258/josh-hazlewood",
    "dob": "1991-01-08",
    "birthPlace": "Tamworth",
    "latitude": "-31.0900743",
    "longitude": "150.9290159",
    "timezone": "Australia/Sydney"
  },
  {
    "id": "14274",
    "name": "Rasikh Dar Salam",
    "profile": "https://www.cricbuzz.com/profiles/14274/rasikh-dar-salam",
    "dob": "2001-04-05",
    "birthPlace": "Kulgam district",
    "latitude": "33.6250187",
    "longitude": "74.6949458",
    "timezone": "Asia/Kolkata"
  },
  {
    "id": "1726",
    "name": "Bhuvneshwar Kumar",
    "profile": "https://www.cricbuzz.com/profiles/1726/bhuvneshwar-kumar",
    "dob": "1990-02-05",
    "birthPlace": "Meerut",
    "latitude": "29.0018557",
    "longitude": "77.7679671",
    "timezone": "Asia/Kolkata"
  },
  {
    "id": "36487",
    "name": "Suyash Sharma",
    "profile": "https://www.cricbuzz.com/profiles/36487/suyash-sharma",
    "dob": "2003-05-15",
    "birthPlace": "",
    "latitude": "",
    "longitude": "",
    "timezone": ""
  },
  {
    "id": "14172",
    "name": "Yash Dayal",
    "profile": "https://www.cricbuzz.com/profiles/14172/yash-dayal",
    "dob": "1997-12-13",
    "birthPlace": "Prayagraj",
    "latitude": "25.4381302",
    "longitude": "81.8338005",
    "timezone": "Asia/Kolkata"
  },
  {
    "id": "18509",
    "name": "Nuwan Thushara",
    "profile": "https://www.cricbuzz.com/profiles/18509/nuwan-thushara",
    "dob": "1994-08-06",
    "birthPlace": "",
    "latitude": "",
    "longitude": "",
    "timezone": ""
  },
  {
    "id": "8554",
    "name": "Jacob Duffy",
    "profile": "https://www.cricbuzz.com/profiles/8554/jacob-duffy",
    "dob": "2000-12-21",
    "birthPlace": "Lumsden",
    "latitude": "50.6463023",
    "longitude": "-104.8659356",
    "timezone": "America/Regina"
  },
  {
    "id": "22616",
    "name": "Vicky Ostwal",
    "profile": "https://www.cricbuzz.com/profiles/22616/vicky-ostwal",
    "dob": "",
    "birthPlace": "",
    "latitude": "",
    "longitude": "",
    "timezone": ""
  },
  {
    "id": "9428",
    "name": "Shreyas Iyer",
    "profile": "https://www.cricbuzz.com/profiles/9428/shreyas-iyer",
    "dob": "1994-12-06",
    "birthPlace": "Mumbai",
    "latitude": "19.054999",
    "longitude": "72.8692035",
    "timezone": "Asia/Kolkata"
  },
  {
    "id": "14689",
    "name": "Priyansh Arya",
    "profile": "https://www.cricbuzz.com/profiles/14689/priyansh-arya",
    "dob": "2001-01-01",
    "birthPlace": "",
    "latitude": "",
    "longitude": "",
    "timezone": ""
  },
  {
    "id": "32525",
    "name": "Pyla Avinash",
    "profile": "https://www.cricbuzz.com/profiles/32525/pyla-avinash",
    "dob": "",
    "birthPlace": "",
    "latitude": "",
    "longitude": "",
    "timezone": ""
  },
  {
    "id": "22561",
    "name": "Harnoor Singh",
    "profile": "https://www.cricbuzz.com/profiles/22561/harnoor-singh",
    "dob": "",
    "birthPlace": "",
    "latitude": "",
    "longitude": "",
    "timezone": ""
  },
  {
    "id": "13915",
    "name": "Nehal Wadhera",
    "profile": "https://www.cricbuzz.com/profiles/13915/nehal-wadhera",
    "dob": "2000-09-04",
    "birthPlace": "Ludhiana",
    "latitude": "30.9090157",
    "longitude": "75.851601",
    "timezone": "Asia/Kolkata"
  },
  {
    "id": "18568",
    "name": "Mitchell Owen",
    "profile": "https://www.cricbuzz.com/profiles/18568/mitchell-owen",
    "dob": "2001-09-16",
    "birthPlace": "",
    "latitude": "",
    "longitude": "",
    "timezone": ""
  },
  {
    "id": "27424",
    "name": "Musheer Khan",
    "profile": "https://www.cricbuzz.com/profiles/27424/musheer-khan",
    "dob": "",
    "birthPlace": "",
    "latitude": "",
    "longitude": "",
    "timezone": ""
  },
  {
    "id": "10919",
    "name": "Shashank Singh",
    "profile": "https://www.cricbuzz.com/profiles/10919/shashank-singh",
    "dob": "1991-11-21",
    "birthPlace": "Mumbai",
    "latitude": "19.054999",
    "longitude": "72.8692035",
    "timezone": "Asia/Kolkata"
  },
  {
    "id": "8989",
    "name": "Marcus Stoinis",
    "profile": "https://www.cricbuzz.com/profiles/8989/marcus-stoinis",
    "dob": "1989-08-16",
    "birthPlace": "Perth",
    "latitude": "-31.9558967",
    "longitude": "115.8605784",
    "timezone": "Australia/Perth"
  },
  {
    "id": "14922",
    "name": "Suryansh Shedge",
    "profile": "https://www.cricbuzz.com/profiles/14922/suryansh-shedge",
    "dob": "2003-01-29",
    "birthPlace": "",
    "latitude": "",
    "longitude": "",
    "timezone": ""
  },
  {
    "id": "15927",
    "name": "Cooper Connolly",
    "profile": "https://www.cricbuzz.com/profiles/15927/cooper-connolly",
    "dob": "2003-08-22",
    "birthPlace": "",
    "latitude": "",
    "longitude": "",
    "timezone": ""
  },
  {
    "id": "13214",
    "name": "Azmatullah Omarzai",
    "profile": "https://www.cricbuzz.com/profiles/13214/azmatullah-omarzai",
    "dob": "2000-03-24",
    "birthPlace": "",
    "latitude": "",
    "longitude": "",
    "timezone": ""
  },
  {
    "id": "14565",
    "name": "Marco Jansen",
    "profile": "https://www.cricbuzz.com/profiles/14565/marco-jansen",
    "dob": "2000-05-01",
    "birthPlace": "Klerksdorp",
    "latitude": "-26.8625383",
    "longitude": "26.6656814",
    "timezone": "Africa/Johannesburg"
  },
  {
    "id": "10484",
    "name": "Praveen Dubey",
    "profile": "https://www.cricbuzz.com/profiles/10484/praveen-dubey",
    "dob": "1993-07-01",
    "birthPlace": "Azamgarh",
    "latitude": "26.023639",
    "longitude": "83.0293105",
    "timezone": "Asia/Kolkata"
  },
  {
    "id": "1461627",
    "name": "Vishal Nishad",
    "profile": "https://www.cricbuzz.com/profiles/1461627/vishal-nishad",
    "dob": "1987-04-25",
    "birthPlace": "Jiaganj Azimganj",
    "latitude": "24.238101",
    "longitude": "88.261914",
    "timezone": "Asia/Kolkata"
  },
  {
    "id": "14254",
    "name": "Prabhsimran Singh",
    "profile": "https://www.cricbuzz.com/profiles/14254/prabhsimran-singh",
    "dob": "2000-08-10",
    "birthPlace": "Patiala",
    "latitude": "30.2092778",
    "longitude": "76.3397231",
    "timezone": "Asia/Kolkata"
  },
  {
    "id": "11893",
    "name": "Vishnu Vinod",
    "profile": "https://www.cricbuzz.com/profiles/11893/vishnu-vinod",
    "dob": "1993-12-02",
    "birthPlace": "Pathanamthitta",
    "latitude": "9.2780841",
    "longitude": "76.9737443",
    "timezone": "Asia/Kolkata"
  },
  {
    "id": "13217",
    "name": "Arshdeep Singh",
    "profile": "https://www.cricbuzz.com/profiles/13217/arshdeep-singh",
    "dob": "1999-02-05",
    "birthPlace": "Guna",
    "latitude": "24.5001772",
    "longitude": "77.2600959",
    "timezone": "Asia/Kolkata"
  },
  {
    "id": "11689",
    "name": "Xavier Bartlett",
    "profile": "https://www.cricbuzz.com/profiles/11689/xavier-bartlett",
    "dob": "1998-12-17",
    "birthPlace": "Adelaide",
    "latitude": "-34.9281805",
    "longitude": "138.5999312",
    "timezone": "Australia/Adelaide"
  },
  {
    "id": "7910",
    "name": "Yuzvendra Chahal",
    "profile": "https://www.cricbuzz.com/profiles/7910/yuzvendra-chahal",
    "dob": "1990-07-23",
    "birthPlace": "Jind",
    "latitude": "29.3152073",
    "longitude": "76.314082",
    "timezone": "Asia/Kolkata"
  },
  {
    "id": "10692",
    "name": "Lockie Ferguson",
    "profile": "https://www.cricbuzz.com/profiles/10692/lockie-ferguson",
    "dob": "1991-06-13",
    "birthPlace": "Auckland",
    "latitude": "-36.852095",
    "longitude": "174.7631803",
    "timezone": "Pacific/Auckland"
  },
  {
    "id": "14452",
    "name": "Harpreet Brar",
    "profile": "https://www.cricbuzz.com/profiles/14452/harpreet-brar",
    "dob": "1995-09-16",
    "birthPlace": "Moga",
    "latitude": "30.7877554",
    "longitude": "75.159359",
    "timezone": "Asia/Kolkata"
  },
  {
    "id": "10486",
    "name": "Vijaykumar Vyshak",
    "profile": "https://www.cricbuzz.com/profiles/10486/vijaykumar-vyshak",
    "dob": "1997-01-31",
    "birthPlace": "Bengaluru",
    "latitude": "12.9767936",
    "longitude": "77.590082",
    "timezone": "Asia/Kolkata"
  },
  {
    "id": "12096",
    "name": "Yash Thakur",
    "profile": "https://www.cricbuzz.com/profiles/12096/yash-thakur",
    "dob": "1999-06-28",
    "birthPlace": "Rajnandgaon",
    "latitude": "21.0684425",
    "longitude": "80.7970779",
    "timezone": "Asia/Kolkata"
  },
  {
    "id": "9739",
    "name": "Ben Dwarshuis",
    "profile": "https://www.cricbuzz.com/profiles/9739/ben-dwarshuis",
    "dob": "1994-06-23",
    "birthPlace": "Kareela",
    "latitude": "-34.0157553",
    "longitude": "151.0812662",
    "timezone": "Australia/Sydney"
  },
  {
    "id": "1447",
    "name": "Ajinkya Rahane",
    "profile": "https://www.cricbuzz.com/profiles/1447/ajinkya-rahane",
    "dob": "1988-06-05",
    "birthPlace": "Ashwi KD",
    "latitude": "19.51777",
    "longitude": "74.3670418",
    "timezone": "Asia/Kolkata"
  },
  {
    "id": "1836",
    "name": "Manish Pandey",
    "profile": "https://www.cricbuzz.com/profiles/1836/manish-pandey",
    "dob": "1989-09-10",
    "birthPlace": "Nainital",
    "latitude": "29.294995",
    "longitude": "79.4162511",
    "timezone": "Asia/Kolkata"
  },
  {
    "id": "11445",
    "name": "Rovman Powell",
    "profile": "https://www.cricbuzz.com/profiles/11445/rovman-powell",
    "dob": "1993-07-23",
    "birthPlace": "Jamaica",
    "latitude": "18.1850507",
    "longitude": "-77.3947693",
    "timezone": "America/Jamaica"
  },
  {
    "id": "22566",
    "name": "Angkrish Raghuvanshi",
    "profile": "https://www.cricbuzz.com/profiles/22566/angkrish-raghuvanshi",
    "dob": "2004-06-05",
    "birthPlace": "Delhi",
    "latitude": "28.6138954",
    "longitude": "77.2090057",
    "timezone": "Asia/Kolkata"
  },
  {
    "id": "10896",
    "name": "Rinku Singh",
    "profile": "https://www.cricbuzz.com/profiles/10896/rinku-singh",
    "dob": "1997-10-12",
    "birthPlace": "Aligarh",
    "latitude": "27.8761073",
    "longitude": "78.1358153",
    "timezone": "Asia/Kolkata"
  },
  {
    "id": "11172",
    "name": "Finn Allen",
    "profile": "https://www.cricbuzz.com/profiles/11172/finn-allen",
    "dob": "1999-04-22",
    "birthPlace": "Auckland",
    "latitude": "-36.852095",
    "longitude": "174.7631803",
    "timezone": "Pacific/Auckland"
  },
  {
    "id": "9012",
    "name": "Rahul Tripathi",
    "profile": "https://www.cricbuzz.com/profiles/9012/rahul-tripathi",
    "dob": "1991-03-02",
    "birthPlace": "Ranchi",
    "latitude": "23.3700501",
    "longitude": "85.3250387",
    "timezone": "Asia/Kolkata"
  },
  {
    "id": "11029",
    "name": "Sarthak Ranjan",
    "profile": "https://www.cricbuzz.com/profiles/11029/sarthak-ranjan",
    "dob": "1996-09-25",
    "birthPlace": "Delhi",
    "latitude": "28.6138954",
    "longitude": "77.2090057",
    "timezone": "Asia/Kolkata"
  },
  {
    "id": "12337",
    "name": "Ramandeep Singh",
    "profile": "https://www.cricbuzz.com/profiles/12337/ramandeep-singh",
    "dob": "1997-04-13",
    "birthPlace": "Chandigarh",
    "latitude": "30.7334421",
    "longitude": "76.7797143",
    "timezone": "Asia/Kolkata"
  },
  {
    "id": "12344",
    "name": "Anukul Roy",
    "profile": "https://www.cricbuzz.com/profiles/12344/anukul-roy",
    "dob": "1998-11-30",
    "birthPlace": "Rosera",
    "latitude": "25.7798366",
    "longitude": "86.0425441",
    "timezone": "Asia/Kolkata"
  },
  {
    "id": "12225",
    "name": "Cameron Green",
    "profile": "https://www.cricbuzz.com/profiles/12225/cameron-green",
    "dob": "1999-06-03",
    "birthPlace": "Subiaco",
    "latitude": "41.9267153",
    "longitude": "13.0944317",
    "timezone": "Europe/Rome"
  },
  {
    "id": "11177",
    "name": "Rachin Ravindra",
    "profile": "https://www.cricbuzz.com/profiles/11177/rachin-ravindra",
    "dob": "1999-11-18",
    "birthPlace": "Wellington",
    "latitude": "-41.2887953",
    "longitude": "174.7772114",
    "timezone": "Pacific/Auckland"
  },
  {
    "id": "2276",
    "name": "Sunil Narine",
    "profile": "https://www.cricbuzz.com/profiles/2276/sunil-narine",
    "dob": "1989-05-26",
    "birthPlace": "Arima",
    "latitude": "10.6372057",
    "longitude": "-61.2829762",
    "timezone": "America/Puerto_Rico"
  },
  {
    "id": "1467180",
    "name": "Daksh Kamra",
    "profile": "https://www.cricbuzz.com/profiles/1467180/daksh-kamra",
    "dob": "",
    "birthPlace": "",
    "latitude": "",
    "longitude": "",
    "timezone": ""
  },
  {
    "id": "9443",
    "name": "Tim Seifert",
    "profile": "https://www.cricbuzz.com/profiles/9443/tim-seifert",
    "dob": "1994-12-14",
    "birthPlace": "Whanganui",
    "latitude": "-39.9324904",
    "longitude": "175.0519306",
    "timezone": "Pacific/Auckland"
  },
  {
    "id": "1429684",
    "name": "Tejasvi Dahiya",
    "profile": "https://www.cricbuzz.com/profiles/1429684/tejasvi-dahiya",
    "dob": "",
    "birthPlace": "",
    "latitude": "",
    "longitude": "",
    "timezone": ""
  },
  {
    "id": "15861",
    "name": "Vaibhav Arora",
    "profile": "https://www.cricbuzz.com/profiles/15861/vaibhav-arora",
    "dob": "1997-12-14",
    "birthPlace": "",
    "latitude": "",
    "longitude": "",
    "timezone": ""
  },
  {
    "id": "24729",
    "name": "Harshit Rana",
    "profile": "https://www.cricbuzz.com/profiles/24729/harshit-rana",
    "dob": "2001-12-22",
    "birthPlace": "",
    "latitude": "",
    "longitude": "",
    "timezone": ""
  },
  {
    "id": "19027",
    "name": "Umran Malik",
    "profile": "https://www.cricbuzz.com/profiles/19027/umran-malik",
    "dob": "1999-11-22",
    "birthPlace": "Jammu",
    "latitude": "32.7185614",
    "longitude": "74.8580917",
    "timezone": "Asia/Kolkata"
  },
  {
    "id": "12926",
    "name": "Varun Chakaravarthy",
    "profile": "https://www.cricbuzz.com/profiles/12926/varun-chakaravarthy",
    "dob": "1991-08-29",
    "birthPlace": "Bidar",
    "latitude": "18.0207297",
    "longitude": "77.2487204",
    "timezone": "Asia/Kolkata"
  },
  {
    "id": "12805",
    "name": "Prashant Solanki",
    "profile": "https://www.cricbuzz.com/profiles/12805/prashant-solanki",
    "dob": "2000-02-22",
    "birthPlace": "",
    "latitude": "",
    "longitude": "",
    "timezone": ""
  },
  {
    "id": "13136",
    "name": "Kartik Tyagi",
    "profile": "https://www.cricbuzz.com/profiles/13136/kartik-tyagi",
    "dob": "2000-11-08",
    "birthPlace": "Hapur",
    "latitude": "28.7166767",
    "longitude": "77.890433",
    "timezone": "Asia/Kolkata"
  },
  {
    "id": "16458",
    "name": "Matheesha Pathirana",
    "profile": "https://www.cricbuzz.com/profiles/16458/matheesha-pathirana",
    "dob": "2002-01-01",
    "birthPlace": "Kandy",
    "latitude": "7.2931208",
    "longitude": "80.6350358",
    "timezone": "Asia/Colombo"
  },
  {
    "id": "9863",
    "name": "Mustafizur Rahman",
    "profile": "https://www.cricbuzz.com/profiles/9863/mustafizur-rahman",
    "dob": "1995-09-06",
    "birthPlace": "Satkhira District",
    "latitude": "22.1807589",
    "longitude": "89.1920684",
    "timezone": "Asia/Dhaka"
  },
  {
    "id": "14726",
    "name": "Akash Deep",
    "profile": "https://www.cricbuzz.com/profiles/14726/akash-deep",
    "dob": "1996-12-15",
    "birthPlace": "Dehri",
    "latitude": "24.9258862",
    "longitude": "84.1728723",
    "timezone": "Asia/Kolkata"
  },
  {
    "id": "8497",
    "name": "Travis Head",
    "profile": "https://www.cricbuzz.com/profiles/8497/travis-head",
    "dob": "1993-12-29",
    "birthPlace": "Adelaide",
    "latitude": "-34.9281805",
    "longitude": "138.5999312",
    "timezone": "Australia/Adelaide"
  },
  {
    "id": "29130",
    "name": "Smaran Ravichandran",
    "profile": "https://www.cricbuzz.com/profiles/29130/smaran-ravichandran",
    "dob": "",
    "birthPlace": "",
    "latitude": "",
    "longitude": "",
    "timezone": ""
  },
  {
    "id": "1447065",
    "name": "Aniket Verma",
    "profile": "https://www.cricbuzz.com/profiles/1447065/aniket-verma",
    "dob": "2002-02-05",
    "birthPlace": "",
    "latitude": "",
    "longitude": "",
    "timezone": ""
  },
  {
    "id": "13348",
    "name": "Jack Edwards",
    "profile": "https://www.cricbuzz.com/profiles/13348/jack-edwards",
    "dob": "2000-04-19",
    "birthPlace": "",
    "latitude": "",
    "longitude": "",
    "timezone": ""
  },
  {
    "id": "12086",
    "name": "Abhishek Sharma",
    "profile": "https://www.cricbuzz.com/profiles/12086/abhishek-sharma",
    "dob": "2000-09-04",
    "birthPlace": "Amritsar",
    "latitude": "31.6356659",
    "longitude": "74.8787496",
    "timezone": "Asia/Kolkata"
  },
  {
    "id": "10940",
    "name": "Kamindu Mendis",
    "profile": "https://www.cricbuzz.com/profiles/10940/kamindu-mendis",
    "dob": "1998-09-30",
    "birthPlace": "Galle",
    "latitude": "6.0328139",
    "longitude": "80.214955",
    "timezone": "Asia/Colombo"
  },
  {
    "id": "14701",
    "name": "Nitish Kumar Reddy",
    "profile": "https://www.cricbuzz.com/profiles/14701/nitish-kumar-reddy",
    "dob": "2003-05-26",
    "birthPlace": "",
    "latitude": "",
    "longitude": "",
    "timezone": ""
  },
  {
    "id": "1455907",
    "name": "Shivang Kumar",
    "profile": "https://www.cricbuzz.com/profiles/1455907/shivang-kumar",
    "dob": "",
    "birthPlace": "",
    "latitude": "",
    "longitude": "",
    "timezone": ""
  },
  {
    "id": "10045",
    "name": "Liam Livingstone",
    "profile": "https://www.cricbuzz.com/profiles/10045/liam-livingstone",
    "dob": "1993-08-04",
    "birthPlace": "Barrow-in-Furness",
    "latitude": "54.1288796",
    "longitude": "-3.2269008",
    "timezone": "Europe/London"
  },
  {
    "id": "14695",
    "name": "Harsh Dubey",
    "profile": "https://www.cricbuzz.com/profiles/14695/harsh-dubey",
    "dob": "2002-07-23",
    "birthPlace": "",
    "latitude": "",
    "longitude": "",
    "timezone": ""
  },
  {
    "id": "10276",
    "name": "Ishan Kishan",
    "profile": "https://www.cricbuzz.com/profiles/10276/ishan-kishan",
    "dob": "1998-07-18",
    "birthPlace": "Patna",
    "latitude": "25.6093239",
    "longitude": "85.1235252",
    "timezone": "Asia/Kolkata"
  },
  {
    "id": "10209",
    "name": "Heinrich Klaasen",
    "profile": "https://www.cricbuzz.com/profiles/10209/heinrich-klaasen",
    "dob": "1991-07-30",
    "birthPlace": "Pretoria",
    "latitude": "-25.7459277",
    "longitude": "28.1879101",
    "timezone": "Africa/Johannesburg"
  },
  {
    "id": "15418",
    "name": "Salil Arora",
    "profile": "https://www.cricbuzz.com/profiles/15418/salil-arora",
    "dob": "",
    "birthPlace": "",
    "latitude": "",
    "longitude": "",
    "timezone": ""
  },
  {
    "id": "11436",
    "name": "Brydon Carse",
    "profile": "https://www.cricbuzz.com/profiles/11436/brydon-carse",
    "dob": "1995-07-31",
    "birthPlace": "Gqeberha",
    "latitude": "-33.9618598",
    "longitude": "25.6186731",
    "timezone": "Africa/Johannesburg"
  },
  {
    "id": "8095",
    "name": "Pat Cummins",
    "profile": "https://www.cricbuzz.com/profiles/8095/pat-cummins",
    "dob": "1993-05-08",
    "birthPlace": "Westmead",
    "latitude": "-33.8076498",
    "longitude": "150.9877265",
    "timezone": "Australia/Sydney"
  },
  {
    "id": "46926",
    "name": "Eshan Malinga",
    "profile": "https://www.cricbuzz.com/profiles/46926/eshan-malinga",
    "dob": "2001-02-04",
    "birthPlace": "",
    "latitude": "",
    "longitude": "",
    "timezone": ""
  },
  {
    "id": "6327",
    "name": "Jaydev Unadkat",
    "profile": "https://www.cricbuzz.com/profiles/6327/jaydev-unadkat",
    "dob": "1992-10-18",
    "birthPlace": "Jaysingpur",
    "latitude": "16.7789886",
    "longitude": "74.5564244",
    "timezone": "Asia/Kolkata"
  },
  {
    "id": "8175",
    "name": "Harshal Patel",
    "profile": "https://www.cricbuzz.com/profiles/8175/harshal-patel",
    "dob": "1990-11-23",
    "birthPlace": "Sanand",
    "latitude": "23.0238876",
    "longitude": "72.3851475",
    "timezone": "Asia/Kolkata"
  },
  {
    "id": "10946",
    "name": "Zeeshan Ansari",
    "profile": "https://www.cricbuzz.com/profiles/10946/zeeshan-ansari",
    "dob": "1999-12-16",
    "birthPlace": "Lucknow",
    "latitude": "26.8381",
    "longitude": "80.9346001",
    "timezone": "Asia/Kolkata"
  },
  {
    "id": "33129",
    "name": "Sakib Hussain",
    "profile": "https://www.cricbuzz.com/profiles/33129/sakib-hussain",
    "dob": "1983-03-28",
    "birthPlace": "Dhaka",
    "latitude": "23.7643863",
    "longitude": "90.3890144",
    "timezone": "Asia/Dhaka"
  },
  {
    "id": "1453784",
    "name": "Onkar Tukaram Tarmale",
    "profile": "https://www.cricbuzz.com/profiles/1453784/onkar-tukaram-tarmale",
    "dob": "",
    "birthPlace": "",
    "latitude": "",
    "longitude": "",
    "timezone": ""
  },
  {
    "id": "1466014",
    "name": "Amit Kumar",
    "profile": "https://www.cricbuzz.com/profiles/1466014/amit-kumar",
    "dob": "",
    "birthPlace": "",
    "latitude": "",
    "longitude": "",
    "timezone": ""
  },
  {
    "id": "1431793",
    "name": "Praful Hinge",
    "profile": "https://www.cricbuzz.com/profiles/1431793/praful-hinge",
    "dob": "",
    "birthPlace": "",
    "latitude": "",
    "longitude": "",
    "timezone": ""
  },
  {
    "id": "1449788",
    "name": "Krains Fuletra",
    "profile": "https://www.cricbuzz.com/profiles/1449788/krains-fuletra",
    "dob": "",
    "birthPlace": "",
    "latitude": "",
    "longitude": "",
    "timezone": ""
  },
  {
    "id": "12345",
    "name": "Shivam Mavi",
    "profile": "https://www.cricbuzz.com/profiles/12345/shivam-mavi",
    "dob": "1998-11-26",
    "birthPlace": "Noida",
    "latitude": "28.5706333",
    "longitude": "77.3272147",
    "timezone": "Asia/Kolkata"
  },
  {
    "id": "19328",
    "name": "Shubham Dubey",
    "profile": "https://www.cricbuzz.com/profiles/19328/shubham-dubey",
    "dob": "1994-08-27",
    "birthPlace": "",
    "latitude": "",
    "longitude": "",
    "timezone": ""
  },
  {
    "id": "9789",
    "name": "Shimron Hetmyer",
    "profile": "https://www.cricbuzz.com/profiles/9789/shimron-hetmyer",
    "dob": "1996-12-26",
    "birthPlace": "Enmore",
    "latitude": "-33.8996968",
    "longitude": "151.170986",
    "timezone": "Australia/Sydney"
  },
  {
    "id": "13940",
    "name": "Yashasvi Jaiswal",
    "profile": "https://www.cricbuzz.com/profiles/13940/yashasvi-jaiswal",
    "dob": "2001-12-28",
    "birthPlace": "Suriyawan",
    "latitude": "25.4641655",
    "longitude": "82.4181237",
    "timezone": "Asia/Kolkata"
  },
  {
    "id": "51791",
    "name": "Vaibhav Suryavanshi",
    "profile": "https://www.cricbuzz.com/profiles/51791/vaibhav-suryavanshi",
    "dob": "2011-03-27",
    "birthPlace": "",
    "latitude": "",
    "longitude": "",
    "timezone": ""
  },
  {
    "id": "1465819",
    "name": "Aman Rao Perala",
    "profile": "https://www.cricbuzz.com/profiles/1465819/aman-rao-perala",
    "dob": "",
    "birthPlace": "",
    "latitude": "",
    "longitude": "",
    "timezone": ""
  },
  {
    "id": "12305",
    "name": "Riyan Parag",
    "profile": "https://www.cricbuzz.com/profiles/12305/riyan-parag",
    "dob": "2001-10-11",
    "birthPlace": "Guwahati",
    "latitude": "26.1805978",
    "longitude": "91.753943",
    "timezone": "Asia/Kolkata"
  },
  {
    "id": "10420",
    "name": "Sam Curran",
    "profile": "https://www.cricbuzz.com/profiles/10420/sam-curran",
    "dob": "1998-06-03",
    "birthPlace": "Northampton",
    "latitude": "52.2343297",
    "longitude": "-0.9028043",
    "timezone": "Europe/London"
  },
  {
    "id": "587",
    "name": "Ravindra Jadeja",
    "profile": "https://www.cricbuzz.com/profiles/587/ravindra-jadeja",
    "dob": "1988-12-06",
    "birthPlace": "Navagam Ghed",
    "latitude": "",
    "longitude": "",
    "timezone": ""
  },
  {
    "id": "14691",
    "name": "Dhruv Jurel",
    "profile": "https://www.cricbuzz.com/profiles/14691/dhruv-jurel",
    "dob": "2001-01-21",
    "birthPlace": "",
    "latitude": "",
    "longitude": "",
    "timezone": ""
  },
  {
    "id": "50545",
    "name": "Lhuan-dre Pretorius",
    "profile": "https://www.cricbuzz.com/profiles/50545/lhuan-dre-pretorius",
    "dob": "2006-03-27",
    "birthPlace": "",
    "latitude": "",
    "longitude": "",
    "timezone": ""
  },
  {
    "id": "14798",
    "name": "Donovan Ferreira",
    "profile": "https://www.cricbuzz.com/profiles/14798/donovan-ferreira",
    "dob": "1998-07-21",
    "birthPlace": "Pretoria",
    "latitude": "-25.7459277",
    "longitude": "28.1879101",
    "timezone": "Africa/Johannesburg"
  },
  {
    "id": "1448413",
    "name": "Ravi Singh",
    "profile": "https://www.cricbuzz.com/profiles/1448413/ravi-singh",
    "dob": "1974-04-06",
    "birthPlace": "New Delhi",
    "latitude": "28.6138954",
    "longitude": "77.2090057",
    "timezone": "Asia/Kolkata"
  },
  {
    "id": "11540",
    "name": "Jofra Archer",
    "profile": "https://www.cricbuzz.com/profiles/11540/jofra-archer",
    "dob": "1995-04-01",
    "birthPlace": "Bridgetown",
    "latitude": "13.0977832",
    "longitude": "-59.6184184",
    "timezone": "America/Barbados"
  },
  {
    "id": "13630",
    "name": "Nandre Burger",
    "profile": "https://www.cricbuzz.com/profiles/13630/nandre-burger",
    "dob": "1995-08-11",
    "birthPlace": "Krugersdorp",
    "latitude": "-26.095556",
    "longitude": "27.775556",
    "timezone": "Africa/Johannesburg"
  },
  {
    "id": "11307",
    "name": "Tushar Deshpande",
    "profile": "https://www.cricbuzz.com/profiles/11307/tushar-deshpande",
    "dob": "1995-05-15",
    "birthPlace": "Mumbai",
    "latitude": "19.054999",
    "longitude": "72.8692035",
    "timezone": "Asia/Kolkata"
  },
  {
    "id": "23346",
    "name": "Kwena Maphaka",
    "profile": "https://www.cricbuzz.com/profiles/23346/kwena-maphaka",
    "dob": "2006-04-08",
    "birthPlace": "",
    "latitude": "",
    "longitude": "",
    "timezone": ""
  },
  {
    "id": "8356",
    "name": "Sandeep Sharma",
    "profile": "https://www.cricbuzz.com/profiles/8356/sandeep-sharma",
    "dob": "1993-05-18",
    "birthPlace": "Patiala",
    "latitude": "30.2092778",
    "longitude": "76.3397231",
    "timezone": "Asia/Kolkata"
  },
  {
    "id": "15749",
    "name": "Yudhvir Singh Charak",
    "profile": "https://www.cricbuzz.com/profiles/15749/yudhvir-singh-charak",
    "dob": "1997-12-13",
    "birthPlace": "",
    "latitude": "",
    "longitude": "",
    "timezone": ""
  },
  {
    "id": "1447337",
    "name": "Vignesh Puthur",
    "profile": "https://www.cricbuzz.com/profiles/1447337/vignesh-puthur",
    "dob": "2001-03-02",
    "birthPlace": "Perinthalmanna",
    "latitude": "10.990946",
    "longitude": "76.2299237",
    "timezone": "Asia/Kolkata"
  },
  {
    "id": "1458811",
    "name": "Yash Raj Punja",
    "profile": "https://www.cricbuzz.com/profiles/1458811/yash-raj-punja",
    "dob": "",
    "birthPlace": "",
    "latitude": "",
    "longitude": "",
    "timezone": ""
  },
  {
    "id": "14706",
    "name": "Sushant Mishra",
    "profile": "https://www.cricbuzz.com/profiles/14706/sushant-mishra",
    "dob": "2000-12-23",
    "birthPlace": "",
    "latitude": "",
    "longitude": "",
    "timezone": ""
  },
  {
    "id": "14659",
    "name": "Ravi Bishnoi",
    "profile": "https://www.cricbuzz.com/profiles/14659/ravi-bishnoi",
    "dob": "2000-09-05",
    "birthPlace": "Jodhpur",
    "latitude": "26.2967719",
    "longitude": "73.0351433",
    "timezone": "Asia/Kolkata"
  },
  {
    "id": "1467167",
    "name": "Brijesh Sharma",
    "profile": "https://www.cricbuzz.com/profiles/1467167/brijesh-sharma",
    "dob": "",
    "birthPlace": "",
    "latitude": "",
    "longitude": "",
    "timezone": ""
  },
  {
    "id": "7625",
    "name": "Adam Milne",
    "profile": "https://www.cricbuzz.com/profiles/7625/adam-milne",
    "dob": "1992-04-13",
    "birthPlace": "Palmerston North",
    "latitude": "-40.356317",
    "longitude": "175.6112388",
    "timezone": "Pacific/Auckland"
  },
  {
    "id": "14336",
    "name": "Kuldeep Sen",
    "profile": "https://www.cricbuzz.com/profiles/14336/kuldeep-sen",
    "dob": "1996-10-23",
    "birthPlace": "",
    "latitude": "",
    "longitude": "",
    "timezone": ""
  },
  {
    "id": "10223",
    "name": "Himmat Singh",
    "profile": "https://www.cricbuzz.com/profiles/10223/himmat-singh",
    "dob": "1996-11-08",
    "birthPlace": "Delhi",
    "latitude": "28.6138954",
    "longitude": "77.2090057",
    "timezone": "Asia/Kolkata"
  },
  {
    "id": "9582",
    "name": "Aiden Markram",
    "profile": "https://www.cricbuzz.com/profiles/9582/aiden-markram",
    "dob": "1994-10-04",
    "birthPlace": "Centurion",
    "latitude": "-25.836389",
    "longitude": "28.180278",
    "timezone": "Africa/Johannesburg"
  },
  {
    "id": "24431",
    "name": "Akshat Raghuwanshi",
    "profile": "https://www.cricbuzz.com/profiles/24431/akshat-raghuwanshi",
    "dob": "2003-09-15",
    "birthPlace": "",
    "latitude": "",
    "longitude": "",
    "timezone": ""
  },
  {
    "id": "14628",
    "name": "Abdul Samad",
    "profile": "https://www.cricbuzz.com/profiles/14628/abdul-samad",
    "dob": "2001-01-01",
    "birthPlace": "Kalakote",
    "latitude": "33.2135214",
    "longitude": "74.4233258",
    "timezone": "Asia/Kolkata"
  },
  {
    "id": "13907",
    "name": "Ayush Badoni",
    "profile": "https://www.cricbuzz.com/profiles/13907/ayush-badoni",
    "dob": "1999-12-03",
    "birthPlace": "",
    "latitude": "",
    "longitude": "",
    "timezone": ""
  },
  {
    "id": "51378",
    "name": "Arshin Kulkarni",
    "profile": "https://www.cricbuzz.com/profiles/51378/arshin-kulkarni",
    "dob": "",
    "birthPlace": "",
    "latitude": "",
    "longitude": "",
    "timezone": ""
  },
  {
    "id": "6250",
    "name": "Mitchell Marsh",
    "profile": "https://www.cricbuzz.com/profiles/6250/mitchell-marsh",
    "dob": "1991-10-20",
    "birthPlace": "Attadale",
    "latitude": "57.3944792",
    "longitude": "-5.455396",
    "timezone": "Europe/London"
  },
  {
    "id": "14606",
    "name": "Shahbaz Ahmed",
    "profile": "https://www.cricbuzz.com/profiles/14606/shahbaz-ahmed",
    "dob": "1994-12-12",
    "birthPlace": "Mewat",
    "latitude": "27.9935177",
    "longitude": "77.0419634",
    "timezone": "Asia/Kolkata"
  },
  {
    "id": "13747",
    "name": "Arjun Tendulkar",
    "profile": "https://www.cricbuzz.com/profiles/13747/arjun-tendulkar",
    "dob": "1999-09-24",
    "birthPlace": "Mumbai",
    "latitude": "19.054999",
    "longitude": "72.8692035",
    "timezone": "Asia/Kolkata"
  },
  {
    "id": "10926",
    "name": "Wanindu Hasaranga",
    "profile": "https://www.cricbuzz.com/profiles/10926/wanindu-hasaranga",
    "dob": "1997-07-29",
    "birthPlace": "Galle",
    "latitude": "6.0328139",
    "longitude": "80.214955",
    "timezone": "Asia/Colombo"
  },
  {
    "id": "10744",
    "name": "Rishabh Pant",
    "profile": "https://www.cricbuzz.com/profiles/10744/rishabh-pant",
    "dob": "1997-10-04",
    "birthPlace": "Haridwar",
    "latitude": "29.9123514",
    "longitude": "78.0087178",
    "timezone": "Asia/Kolkata"
  },
  {
    "id": "13089",
    "name": "Matthew Breetzke",
    "profile": "https://www.cricbuzz.com/profiles/13089/matthew-breetzke",
    "dob": "1998-11-03",
    "birthPlace": "",
    "latitude": "",
    "longitude": "",
    "timezone": ""
  },
  {
    "id": "9406",
    "name": "Nicholas Pooran",
    "profile": "https://www.cricbuzz.com/profiles/9406/nicholas-pooran",
    "dob": "1995-10-02",
    "birthPlace": "Trinidad",
    "latitude": "10.4435991",
    "longitude": "-61.261318",
    "timezone": "America/Puerto_Rico"
  },
  {
    "id": "39219",
    "name": "Mukul Choudhary",
    "profile": "https://www.cricbuzz.com/profiles/39219/mukul-choudhary",
    "dob": "",
    "birthPlace": "",
    "latitude": "",
    "longitude": "",
    "timezone": ""
  },
  {
    "id": "10637",
    "name": "Josh Inglis",
    "profile": "https://www.cricbuzz.com/profiles/10637/josh-inglis",
    "dob": "1995-03-04",
    "birthPlace": "Leeds",
    "latitude": "53.7974185",
    "longitude": "-1.5437941",
    "timezone": "Europe/London"
  },
  {
    "id": "14696",
    "name": "Akash Maharaj Singh",
    "profile": "https://www.cricbuzz.com/profiles/14696/akash-maharaj-singh",
    "dob": "2002-04-26",
    "birthPlace": "Bharatpur",
    "latitude": "27.0246959",
    "longitude": "77.2920116",
    "timezone": "Asia/Kolkata"
  },
  {
    "id": "9781",
    "name": "Avesh Khan",
    "profile": "https://www.cricbuzz.com/profiles/9781/avesh-khan",
    "dob": "1996-12-13",
    "birthPlace": "Indore",
    "latitude": "22.7203616",
    "longitude": "75.8681996",
    "timezone": "Asia/Kolkata"
  },
  {
    "id": "7909",
    "name": "Mohammed Shami",
    "profile": "https://www.cricbuzz.com/profiles/7909/mohammed-shami",
    "dob": "1990-03-09",
    "birthPlace": "Amroha",
    "latitude": "28.7952632",
    "longitude": "78.3436244",
    "timezone": "Asia/Kolkata"
  },
  {
    "id": "54735",
    "name": "Prince Yadav",
    "profile": "https://www.cricbuzz.com/profiles/54735/prince-yadav",
    "dob": "",
    "birthPlace": "",
    "latitude": "",
    "longitude": "",
    "timezone": ""
  },
  {
    "id": "13534",
    "name": "Mohsin Khan",
    "profile": "https://www.cricbuzz.com/profiles/13534/mohsin-khan",
    "dob": "",
    "birthPlace": "",
    "latitude": "",
    "longitude": "",
    "timezone": ""
  },
  {
    "id": "1448289",
    "name": "Digvesh Singh Rathi",
    "profile": "https://www.cricbuzz.com/profiles/1448289/digvesh-singh-rathi",
    "dob": "1999-12-15",
    "birthPlace": "",
    "latitude": "",
    "longitude": "",
    "timezone": ""
  },
  {
    "id": "12930",
    "name": "Manimaran Siddharth",
    "profile": "https://www.cricbuzz.com/profiles/12930/manimaran-siddharth",
    "dob": "1998-07-03",
    "birthPlace": "",
    "latitude": "",
    "longitude": "",
    "timezone": ""
  },
  {
    "id": "22401",
    "name": "Mayank Yadav",
    "profile": "https://www.cricbuzz.com/profiles/22401/mayank-yadav",
    "dob": "2002-06-17",
    "birthPlace": "",
    "latitude": "",
    "longitude": "",
    "timezone": ""
  },
  {
    "id": "11427",
    "name": "Anrich Nortje",
    "profile": "https://www.cricbuzz.com/profiles/11427/anrich-nortje",
    "dob": "1993-11-16",
    "birthPlace": "Uitenhage",
    "latitude": "-33.7678979",
    "longitude": "25.3978174",
    "timezone": "Africa/Johannesburg"
  },
  {
    "id": "51756",
    "name": "Naman Tiwari",
    "profile": "https://www.cricbuzz.com/profiles/51756/naman-tiwari",
    "dob": "",
    "birthPlace": "",
    "latitude": "",
    "longitude": "",
    "timezone": ""
  },
  {
    "id": "36139",
    "name": "Naman Dhir",
    "profile": "https://www.cricbuzz.com/profiles/36139/naman-dhir",
    "dob": "",
    "birthPlace": "",
    "latitude": "",
    "longitude": "",
    "timezone": ""
  },
  {
    "id": "576",
    "name": "Rohit Sharma",
    "profile": "https://www.cricbuzz.com/profiles/576/rohit-sharma",
    "dob": "1987-04-30",
    "birthPlace": "Nagpur",
    "latitude": "21.1498134",
    "longitude": "79.0820556",
    "timezone": "Asia/Kolkata"
  },
  {
    "id": "7915",
    "name": "Suryakumar Yadav",
    "profile": "https://www.cricbuzz.com/profiles/7915/suryakumar-yadav",
    "dob": "1990-09-14",
    "birthPlace": "Mumbai",
    "latitude": "19.054999",
    "longitude": "72.8692035",
    "timezone": "Asia/Kolkata"
  },
  {
    "id": "14504",
    "name": "Tilak Varma",
    "profile": "https://www.cricbuzz.com/profiles/14504/tilak-varma",
    "dob": "2002-11-08",
    "birthPlace": "Hyderabad",
    "latitude": "17.360589",
    "longitude": "78.4740613",
    "timezone": "Asia/Kolkata"
  },
  {
    "id": "13748",
    "name": "Sherfane Rutherford",
    "profile": "https://www.cricbuzz.com/profiles/13748/sherfane-rutherford",
    "dob": "1998-08-15",
    "birthPlace": "Enmore",
    "latitude": "-33.8996968",
    "longitude": "151.170986",
    "timezone": "Australia/Sydney"
  },
  {
    "id": "9647",
    "name": "Hardik Pandya",
    "profile": "https://www.cricbuzz.com/profiles/9647/hardik-pandya",
    "dob": "1993-10-11",
    "birthPlace": "Surat",
    "latitude": "21.2094892",
    "longitude": "72.8317058",
    "timezone": "Asia/Kolkata"
  },
  {
    "id": "22601",
    "name": "Raj Bawa",
    "profile": "https://www.cricbuzz.com/profiles/22601/raj-bawa",
    "dob": "2002-11-12",
    "birthPlace": "Nahan",
    "latitude": "30.5601803",
    "longitude": "77.2923596",
    "timezone": "Asia/Kolkata"
  },
  {
    "id": "12258",
    "name": "Will Jacks",
    "profile": "https://www.cricbuzz.com/profiles/12258/will-jacks",
    "dob": "1998-11-21",
    "birthPlace": "Chertsey",
    "latitude": "51.392296",
    "longitude": "-0.5038294",
    "timezone": "Europe/London"
  },
  {
    "id": "12341",
    "name": "Mayank Rawat",
    "profile": "https://www.cricbuzz.com/profiles/12341/mayank-rawat",
    "dob": "",
    "birthPlace": "",
    "latitude": "",
    "longitude": "",
    "timezone": ""
  },
  {
    "id": "9576",
    "name": "Corbin Bosch",
    "profile": "https://www.cricbuzz.com/profiles/9576/corbin-bosch",
    "dob": "1994-09-10",
    "birthPlace": "Durban",
    "latitude": "-29.861825",
    "longitude": "31.009909",
    "timezone": "Africa/Johannesburg"
  },
  {
    "id": "10100",
    "name": "Mitchell Santner",
    "profile": "https://www.cricbuzz.com/profiles/10100/mitchell-santner",
    "dob": "1992-02-05",
    "birthPlace": "Hamilton",
    "latitude": "43.2560802",
    "longitude": "-79.8728583",
    "timezone": "America/Toronto"
  },
  {
    "id": "8683",
    "name": "Shardul Thakur",
    "profile": "https://www.cricbuzz.com/profiles/8683/shardul-thakur",
    "dob": "1991-10-16",
    "birthPlace": "Palghar",
    "latitude": "19.757249",
    "longitude": "73.0931199",
    "timezone": "Asia/Kolkata"
  },
  {
    "id": "1431785",
    "name": "Danish Malewar",
    "profile": "https://www.cricbuzz.com/profiles/1431785/danish-malewar",
    "dob": "",
    "birthPlace": "",
    "latitude": "",
    "longitude": "",
    "timezone": ""
  },
  {
    "id": "14703",
    "name": "Atharva Ankolekar",
    "profile": "https://www.cricbuzz.com/profiles/14703/atharva-ankolekar",
    "dob": "2000-09-26",
    "birthPlace": "",
    "latitude": "",
    "longitude": "",
    "timezone": ""
  },
  {
    "id": "36454",
    "name": "Robin Minz",
    "profile": "https://www.cricbuzz.com/profiles/36454/robin-minz",
    "dob": "2002-09-13",
    "birthPlace": "Jharkhand",
    "latitude": "23.4559809",
    "longitude": "85.2557301",
    "timezone": "Asia/Kolkata"
  },
  {
    "id": "13070",
    "name": "Ryan Rickelton",
    "profile": "https://www.cricbuzz.com/profiles/13070/ryan-rickelton",
    "dob": "1996-07-11",
    "birthPlace": "Perth",
    "latitude": "-31.9558967",
    "longitude": "115.8605784",
    "timezone": "Australia/Perth"
  },
  {
    "id": "8520",
    "name": "Quinton de Kock",
    "profile": "https://www.cricbuzz.com/profiles/8520/quinton-de-kock",
    "dob": "1992-12-17",
    "birthPlace": "Johannesburg",
    "latitude": "-26.205",
    "longitude": "28.049722",
    "timezone": "Africa/Johannesburg"
  },
  {
    "id": "8117",
    "name": "Trent Boult",
    "profile": "https://www.cricbuzz.com/profiles/8117/trent-boult",
    "dob": "1989-07-22",
    "birthPlace": "Rotorua",
    "latitude": "-38.136073",
    "longitude": "176.2525434",
    "timezone": "Pacific/Auckland"
  },
  {
    "id": "11684",
    "name": "Ashwani Kumar",
    "profile": "https://www.cricbuzz.com/profiles/11684/ashwani-kumar",
    "dob": "2001-01-01",
    "birthPlace": "Mohali",
    "latitude": "30.7041168",
    "longitude": "76.7176885",
    "timezone": "Asia/Kolkata"
  },
  {
    "id": "9311",
    "name": "Jasprit Bumrah",
    "profile": "https://www.cricbuzz.com/profiles/9311/jasprit-bumrah",
    "dob": "1993-12-06",
    "birthPlace": "Ahmedabad",
    "latitude": "23.0215374",
    "longitude": "72.5800568",
    "timezone": "Asia/Kolkata"
  },
  {
    "id": "7836",
    "name": "Deepak Chahar",
    "profile": "https://www.cricbuzz.com/profiles/7836/deepak-chahar",
    "dob": "1972-08-07",
    "birthPlace": "Agra",
    "latitude": "27.1752554",
    "longitude": "78.0098161",
    "timezone": "Asia/Kolkata"
  },
  {
    "id": "12627",
    "name": "Mayank Markande",
    "profile": "https://www.cricbuzz.com/profiles/12627/mayank-markande",
    "dob": "1997-11-11",
    "birthPlace": "Bathinda",
    "latitude": "30.1794814",
    "longitude": "75.0471098",
    "timezone": "Asia/Kolkata"
  },
  {
    "id": "36501",
    "name": "AM Ghazanfar",
    "profile": "https://www.cricbuzz.com/profiles/36501/am-ghazanfar",
    "dob": "2007-00-00",
    "birthPlace": "",
    "latitude": "",
    "longitude": "",
    "timezone": ""
  },
  {
    "id": "13146",
    "name": "Raghu Sharma",
    "profile": "https://www.cricbuzz.com/profiles/13146/raghu-sharma",
    "dob": "",
    "birthPlace": "",
    "latitude": "",
    "longitude": "",
    "timezone": ""
  },
  {
    "id": "1465841",
    "name": "Mohammed Salahuddin Izhar",
    "profile": "https://www.cricbuzz.com/profiles/1465841/mohammed-salahuddin-izhar",
    "dob": "",
    "birthPlace": "",
    "latitude": "",
    "longitude": "",
    "timezone": ""
  }
]